{
  "N06": {
    "name": "Wiehle-Reston East",
    "lat": 38.947832,
    "lon": -77.340316,
    "routes": [
      "OR"
    ]
  },
  "N04": {
    "name": "Spring Hill",
    "lat": 38.929212,
    "lon": -77.241891,
    "routes": [
      "OR"
    ]
  },
  "N03": {
    "name": "Greensboro",
    "lat": 38.921269,
    "lon": -77.234162,
    "routes": [
      "OR"
    ]
  },
  "N02": {
    "name": "Tysons",
    "lat": 38.920685,
    "lon": -77.221589,
    "routes": [
      "BL",
      "OR",
      "RD"
    ]
  },
  "N01": {
    "name": "Mclean",
    "lat": 38.924339,
    "lon": -77.21053,
    "routes": [
      "OR"
    ]
  },
  "K08": {
    "name": "Vienna",
    "lat": 38.877578,
    "lon": -77.272459,
    "routes": [
      "OR"
    ]
  },
  "K07": {
    "name": "Dunn Loring",
    "lat": 38.883649,
    "lon": -77.227243,
    "routes": [
      "OR"
    ]
  },
  "K06": {
    "name": "West Falls Church",
    "lat": 38.900788,
    "lon": -77.189221,
    "routes": [
      "OR"
    ]
  },
  "K05": {
    "name": "East Falls Church",
    "lat": 38.886026,
    "lon": -77.156944,
    "routes": [
      "OR"
    ]
  },
  "K04": {
    "name": "Ballston-Mu",
    "lat": 38.88226,
    "lon": -77.11322,
    "routes": [
      "OR"
    ]
  },
  "K03": {
    "name": "Virginia Sq-Gmu",
    "lat": 38.883433,
    "lon": -77.103024,
    "routes": [
      "OR"
    ]
  },
  "K02": {
    "name": "Clarendon",
    "lat": 38.886739,
    "lon": -77.095442,
    "routes": [
      "OR"
    ]
  },
  "K01": {
    "name": "Court House",
    "lat": 38.890153,
    "lon": -77.087144,
    "routes": [
      "OR"
    ]
  },
  "J03": {
    "name": "Franconia-Springfield",
    "lat": 38.766505,
    "lon": -77.167991,
    "routes": [
      "BL",
      "OR"
    ]
  },
  "J02": {
    "name": "Van Dorn St",
    "lat": 38.799292,
    "lon": -77.12927,
    "routes": [
      "BL",
      "OR"
    ]
  },
  "G05": {
    "name": "Downtown Largo",
    "lat": 38.900511,
    "lon": -76.844654,
    "routes": [
      "BL",
      "OR"
    ]
  },
  "G04": {
    "name": "Morgan Blvd",
    "lat": 38.894001,
    "lon": -76.867707,
    "routes": [
      "BL",
      "OR",
      "RD"
    ]
  },
  "G03": {
    "name": "Addison Rd",
    "lat": 38.886731,
    "lon": -76.894135,
    "routes": [
      "BL",
      "OR"
    ]
  },
  "G02": {
    "name": "Capitol Heights",
    "lat": 38.889429,
    "lon": -76.911833,
    "routes": [
      "BL",
      "OR"
    ]
  },
  "G01": {
    "name": "Benning Rd",
    "lat": 38.891069,
    "lon": -76.938619,
    "routes": [
      "BL",
      "OR",
      "RD"
    ]
  },
  "F11": {
    "name": "Branch Ave",
    "lat": 38.826718,
    "lon": -76.911817,
    "routes": [
      "GR",
      "OR"
    ]
  },
  "F10": {
    "name": "Suitland",
    "lat": 38.844668,
    "lon": -76.932869,
    "routes": [
      "GR",
      "OR"
    ]
  },
  "F09": {
    "name": "Naylor Rd",
    "lat": 38.851121,
    "lon": -76.956605,
    "routes": [
      "GR",
      "OR"
    ]
  },
  "F08": {
    "name": "Southern Ave",
    "lat": 38.840954,
    "lon": -76.975211,
    "routes": [
      "GR",
      "OR"
    ]
  },
  "F07": {
    "name": "Congress Heights",
    "lat": 38.845695,
    "lon": -76.988439,
    "routes": [
      "GR",
      "OR"
    ]
  },
  "F06": {
    "name": "Anacostia",
    "lat": 38.863287,
    "lon": -76.995559,
    "routes": [
      "GR",
      "OR"
    ]
  },
  "F05": {
    "name": "Navy Yard-Ballpark",
    "lat": 38.876473,
    "lon": -77.005877,
    "routes": [
      "GR",
      "OR"
    ]
  },
  "F04": {
    "name": "Waterfront",
    "lat": 38.876456,
    "lon": -77.017559,
    "routes": [
      "GR",
      "OR"
    ]
  },
  "F02": {
    "name": "Archives",
    "lat": 38.893224,
    "lon": -77.021909,
    "routes": [
      "GR",
      "OR"
    ]
  },
  "E10": {
    "name": "Greenbelt",
    "lat": 39.011093,
    "lon": -76.911197,
    "routes": [
      "GR",
      "OR"
    ]
  },
  "E09": {
    "name": "College Park-U Of Md",
    "lat": 38.978303,
    "lon": -76.92834,
    "routes": [
      "GR",
      "OR"
    ]
  },
  "E08": {
    "name": "Hyattsville Crossing",
    "lat": 38.965292,
    "lon": -76.956422,
    "routes": [
      "GR",
      "OR",
      "SV"
    ]
  },
  "E07": {
    "name": "West Hyattsville",
    "lat": 38.955276,
    "lon": -76.9695,
    "routes": [
      "GR",
      "OR"
    ]
  },
  "E05": {
    "name": "Georgia Ave-Petworth",
    "lat": 38.937367,
    "lon": -77.023537,
    "routes": [
      "OR"
    ]
  },
  "E04": {
    "name": "Columbia Heights",
    "lat": 38.927502,
    "lon": -77.032521,
    "routes": [
      "OR"
    ]
  },
  "E03": {
    "name": "U St",
    "lat": 38.917009,
    "lon": -77.02752,
    "routes": [
      "GR",
      "OR"
    ]
  },
  "E02": {
    "name": "Shaw-Howard U",
    "lat": 38.913518,
    "lon": -77.021923,
    "routes": [
      "GR",
      "OR"
    ]
  },
  "E01": {
    "name": "Mt Vernon Sq",
    "lat": 38.90658,
    "lon": -77.02192,
    "routes": [
      "GR",
      "OR"
    ]
  },
  "D13": {
    "name": "New Carrollton",
    "lat": 38.948028,
    "lon": -76.87187,
    "routes": [
      "OR"
    ]
  },
  "D12": {
    "name": "Landover",
    "lat": 38.933504,
    "lon": -76.891265,
    "routes": [
      "OR"
    ]
  },
  "D11": {
    "name": "Cheverly",
    "lat": 38.916641,
    "lon": -76.916662,
    "routes": [
      "OR"
    ]
  },
  "D10": {
    "name": "Deanwood",
    "lat": 38.908224,
    "lon": -76.935163,
    "routes": [
      "OR"
    ]
  },
  "D09": {
    "name": "Minnesota Ave",
    "lat": 38.899168,
    "lon": -76.946743,
    "routes": [
      "OR"
    ]
  },
  "D08": {
    "name": "Stadium-Armory",
    "lat": 38.886927,
    "lon": -76.977074,
    "routes": [
      "BL",
      "OR"
    ]
  },
  "D07": {
    "name": "Potomac Ave",
    "lat": 38.881271,
    "lon": -76.98558,
    "routes": [
      "BL",
      "OR"
    ]
  },
  "D06": {
    "name": "Eastern Market",
    "lat": 38.884632,
    "lon": -76.996075,
    "routes": [
      "BL",
      "OR"
    ]
  },
  "D05": {
    "name": "Capitol South",
    "lat": 38.885073,
    "lon": -77.005215,
    "routes": [
      "BL",
      "OR"
    ]
  },
  "D04": {
    "name": "Federal Center Sw",
    "lat": 38.885076,
    "lon": -77.015937,
    "routes": [
      "BL",
      "OR"
    ]
  },
  "D03": {
    "name": "L'Enfant Plaza",
    "lat": 38.884893,
    "lon": -77.021913,
    "routes": [
      "BL",
      "GR",
      "OR",
      "SV",
      "YL"
    ]
  },
  "D02": {
    "name": "Smithsonian",
    "lat": 38.888506,
    "lon": -77.028631,
    "routes": [
      "BL",
      "OR",
      "SV"
    ]
  },
  "D01": {
    "name": "Federal Triangle",
    "lat": 38.893834,
    "lon": -77.028132,
    "routes": [
      "BL",
      "OR",
      "SV"
    ]
  },
  "C15": {
    "name": "Huntington",
    "lat": 38.79383,
    "lon": -77.0753,
    "routes": [
      "OR"
    ]
  },
  "C14": {
    "name": "Eisenhower Ave",
    "lat": 38.800354,
    "lon": -77.071156,
    "routes": [
      "OR",
      "YL"
    ]
  },
  "C13": {
    "name": "King St-Old Town",
    "lat": 38.806609,
    "lon": -77.060974,
    "routes": [
      "BL",
      "GR",
      "OR",
      "YL"
    ]
  },
  "C12": {
    "name": "Braddock Rd",
    "lat": 38.814087,
    "lon": -77.053722,
    "routes": [
      "BL",
      "GR",
      "OR",
      "YL"
    ]
  },
  "C10": {
    "name": "Ronald Reagan Washington National Airport",
    "lat": 38.853505,
    "lon": -77.044048,
    "routes": [
      "BL",
      "GR",
      "OR",
      "RD",
      "YL"
    ]
  },
  "C09": {
    "name": "Crystal City",
    "lat": 38.857846,
    "lon": -77.050572,
    "routes": [
      "BL",
      "GR",
      "OR",
      "YL"
    ]
  },
  "C08": {
    "name": "Pentagon City",
    "lat": 38.861852,
    "lon": -77.059516,
    "routes": [
      "BL",
      "GR",
      "OR",
      "YL"
    ]
  },
  "C07": {
    "name": "Pentagon",
    "lat": 38.869195,
    "lon": -77.054113,
    "routes": [
      "OR"
    ]
  },
  "C06": {
    "name": "Arlington Cemetery",
    "lat": 38.884588,
    "lon": -77.0631,
    "routes": [
      "BL",
      "OR"
    ]
  },
  "C05": {
    "name": "Rosslyn",
    "lat": 38.896034,
    "lon": -77.070838,
    "routes": [
      "BL",
      "OR",
      "SV"
    ]
  },
  "C04": {
    "name": "Foggy Bottom-Gwu",
    "lat": 38.9007,
    "lon": -77.050104,
    "routes": [
      "BL",
      "OR",
      "SV"
    ]
  },
  "C03": {
    "name": "Farragut West",
    "lat": 38.901342,
    "lon": -77.040464,
    "routes": [
      "BL",
      "OR",
      "SV"
    ]
  },
  "C02": {
    "name": "Mcpherson Sq",
    "lat": 38.901342,
    "lon": -77.033433,
    "routes": [
      "BL",
      "OR",
      "SV"
    ]
  },
  "B35": {
    "name": "Noma-Gallaudet U",
    "lat": 38.906617,
    "lon": -77.003311,
    "routes": [
      "GR",
      "OR",
      "RD"
    ]
  },
  "B11": {
    "name": "Glenmont",
    "lat": 39.061767,
    "lon": -77.053548,
    "routes": [
      "OR"
    ]
  },
  "B10": {
    "name": "Wheaton",
    "lat": 39.037543,
    "lon": -77.05011,
    "routes": [
      "GR",
      "OR",
      "RD"
    ]
  },
  "B09": {
    "name": "Forest Glen",
    "lat": 39.014946,
    "lon": -77.042927,
    "routes": [
      "GR",
      "OR",
      "RD"
    ]
  },
  "B08": {
    "name": "Silver Spring",
    "lat": 38.993799,
    "lon": -77.031307,
    "routes": [
      "GR",
      "OR",
      "RD"
    ]
  },
  "B07": {
    "name": "Takoma",
    "lat": 38.976022,
    "lon": -77.018126,
    "routes": [
      "GR",
      "OR",
      "RD"
    ]
  },
  "B06": {
    "name": "Fort Totten",
    "lat": 38.951786,
    "lon": -77.002296,
    "routes": [
      "GR",
      "OR",
      "RD",
      "YL"
    ]
  },
  "B05": {
    "name": "Brookland-Cua",
    "lat": 38.933126,
    "lon": -76.994546,
    "routes": [
      "GR",
      "OR",
      "RD"
    ]
  },
  "B04": {
    "name": "Rhode Island Ave",
    "lat": 38.920916,
    "lon": -76.995942,
    "routes": [
      "GR",
      "OR",
      "RD"
    ]
  },
  "B03": {
    "name": "Union Station",
    "lat": 38.897495,
    "lon": -77.007467,
    "routes": [
      "GR",
      "OR",
      "RD"
    ]
  },
  "B02": {
    "name": "Judiciary Sq",
    "lat": 38.896218,
    "lon": -77.016804,
    "routes": [
      "GR",
      "OR",
      "RD"
    ]
  },
  "B01": {
    "name": "Gallery Place",
    "lat": 38.89838,
    "lon": -77.022802,
    "routes": [
      "GR",
      "OR",
      "RD",
      "YL"
    ]
  },
  "A15": {
    "name": "Shady Grove",
    "lat": 39.119927,
    "lon": -77.164669,
    "routes": [
      "GR",
      "OR",
      "RD"
    ]
  },
  "A14": {
    "name": "Rockville",
    "lat": 39.084272,
    "lon": -77.146193,
    "routes": [
      "GR",
      "OR",
      "RD"
    ]
  },
  "A13": {
    "name": "Twinbrook",
    "lat": 39.062696,
    "lon": -77.121216,
    "routes": [
      "GR",
      "OR",
      "RD"
    ]
  },
  "A12": {
    "name": "North Bethesda",
    "lat": 39.048539,
    "lon": -77.113076,
    "routes": [
      "GR",
      "OR",
      "RD"
    ]
  },
  "A11": {
    "name": "Grosvenor-Strathmore",
    "lat": 39.029732,
    "lon": -77.104117,
    "routes": [
      "GR",
      "OR",
      "RD"
    ]
  },
  "A10": {
    "name": "Medical Center",
    "lat": 38.998225,
    "lon": -77.096758,
    "routes": [
      "GR",
      "OR",
      "RD"
    ]
  },
  "A09": {
    "name": "Bethesda",
    "lat": 38.983275,
    "lon": -77.093654,
    "routes": [
      "GR",
      "OR",
      "RD"
    ]
  },
  "A08": {
    "name": "Friendship Heights",
    "lat": 38.959384,
    "lon": -77.085022,
    "routes": [
      "GR",
      "OR",
      "RD"
    ]
  },
  "A07": {
    "name": "Tenleytown-Au",
    "lat": 38.948886,
    "lon": -77.079672,
    "routes": [
      "GR",
      "OR",
      "RD"
    ]
  },
  "A06": {
    "name": "Van Ness-Udc",
    "lat": 38.943211,
    "lon": -77.062953,
    "routes": [
      "GR",
      "OR",
      "RD"
    ]
  },
  "A05": {
    "name": "Cleveland Park",
    "lat": 38.934911,
    "lon": -77.058127,
    "routes": [
      "GR",
      "OR",
      "RD"
    ]
  },
  "A04": {
    "name": "Woodley Park",
    "lat": 38.925562,
    "lon": -77.052692,
    "routes": [
      "GR",
      "OR"
    ]
  },
  "A03": {
    "name": "Dupont Circle",
    "lat": 38.909909,
    "lon": -77.043597,
    "routes": [
      "GR",
      "OR"
    ]
  },
  "A02": {
    "name": "Farragut North",
    "lat": 38.903147,
    "lon": -77.039668,
    "routes": [
      "GR",
      "OR"
    ]
  },
  "A01": {
    "name": "Metro Center",
    "lat": 38.898321,
    "lon": -77.028088,
    "routes": [
      "BL",
      "GR",
      "OR"
    ]
  },
  "N07": {
    "name": "Reston Town Center",
    "lat": 38.952765,
    "lon": -77.360183,
    "routes": [
      "OR"
    ]
  },
  "N08": {
    "name": "Herndon",
    "lat": 38.952821,
    "lon": -77.385178,
    "routes": [
      "OR"
    ]
  },
  "N09": {
    "name": "Innovation Center",
    "lat": 38.960881,
    "lon": -77.415638,
    "routes": [
      "OR"
    ]
  },
  "N10": {
    "name": "Washington Dulles International Airport",
    "lat": 38.955786,
    "lon": -77.448189,
    "routes": [
      "OR"
    ]
  },
  "N11": {
    "name": "Loudoun Gateway",
    "lat": 38.99204,
    "lon": -77.460685,
    "routes": [
      "OR"
    ]
  },
  "N12": {
    "name": "Ashburn",
    "lat": 39.005196,
    "lon": -77.491434,
    "routes": [
      "OR"
    ]
  },
  "C11": {
    "name": "Potomac Yard/Vt",
    "lat": 38.833192,
    "lon": -77.04642,
    "routes": [
      "BL",
      "GR",
      "OR",
      "YL"
    ]
  }
}
